locality,decimalLat,decimalLon,institutio,year,n
Billings,45.7241391,-108.5225281,USNM,1909,5
Crow Agency,45.6020465,-107.464496,USNM,1916,5
"Yellowstone River, 5 mi W Forsyth",46.26478,-106.785312,MVZ,1940,4
East Pryor Creek,45.4606,-108.317,USNM,1900,3
2 mi W Fort Howe Ranger Station,45.292546,-106.188997,MVZ,1947,2
Big Muddy River,48.1634575,-104.6294446,USNM,1874,2
Glendive,47.1061579,-104.7174338,USNM,1916,2
Great Falls,47.5166139,-111.3026347,USNM,1894,2
JORDAN,47.318869,-106.909027,UMMZ,1917,2
Lame Deer,45.6207514,-106.6754733,USNM,1916,2
1 mi N Fort Howe Research Station,45.30535,-106.141915,MVZ,1947,1
1 mi W Fort Howe Ranger Station,45.279825,-106.251513,MVZ,1947,1
10 MI N W MILES CITY,46.509746,-105.986444,UMMZ,1939,1
10 mi N Lee,45.964873,-106.650522,MVZ,1940,1
11 mi W Ashland,45.599702,-106.497642,MVZ,1947,1
14 MI N W OF ALZADA,45.16557,-104.616315,UMMZ,1939,1
16 MI N W BROADUS,45.590085,-105.633573,UMMZ,1939,1
"17 mi SE Miles City, on Pumkin Cr. (near US 212).",46.20182,-105.64577,BYU,1949,1
2 1/2 MI W OF KEVIN,48.743392,-112.030809,UMMZ,1932,1
2 1/2 MI W OF KEVIN,48.745415,-112.032904,UMMZ,1933,1
2 MI S HEDGESVILLE,46.428321,-109.501905,UMMZ,1933,1
2 MI S HEDGESVILLE,46.430385,-109.502851,UMMZ,1932,1
2 MI S MILES CITY,46.401473,-105.847051,UMMZ,1934,1
2 mi E Lame Deer,45.624559,-106.626905,MVZ,1947,1
2 mi NW Lame Deer,45.647139,-106.700067,MVZ,1940,1
2 mi from Shriver,45.209999,-108.474095,MVZ,1947,1
25 MI S HARLOWTON,46.070408,-109.842124,UMMZ,1932,1
3 MI S SIDNEY,47.670942,-104.157075,UMMZ,1939,1
4 mi W Fort Howe Ranger Station,45.285819,-106.222546,MVZ,1940,1
43 MI S E MILES CITY HWY 22,45.786204,-105.66228,UMMZ,1939,1
5 mi W Havre,48.563962,-109.790049,MVZ,1937,1
6 mi W Park City,45.632594,-109.043055,MVZ,1947,1
6.5 MI S E BROADUS,45.39816,-105.352892,UMMZ,1939,1
7 mi SE Lame Deer,45.576474,-106.544012,MVZ,1947,1
8 MI E OF BIG TIMBEE,45.823464,-109.798721,UMMZ,1926,1
8 MI S HARLOWTON,46.316307,-109.82957,UMMZ,1935,1
8 MI S HARLOWTON,46.317005,-109.83088,UMMZ,1926,1
8 MI S HARLOWTON,46.317222,-109.829226,UMMZ,1932,1
8 MI S HARLOWTON,46.317437,-109.828234,UMMZ,1932,1
"Ashland, 10 mi SW of, Otter Creek",45.498155,-106.1734572,USNM,1916,1
"Ashland, 10 mi W of",45.587954,-106.2724612,USNM,1916,1
BILLINGS,45.781399,-108.510473,UMMZ,1904,1
BILLINGS,45.78398,-108.510808,UMMZ,1904,1
Big Timber,45.8354289,-109.9595708,USNM,1922,1
"Big Timber Creek, near mouth",45.853329,-109.9355703,USNM,1917,1
Billings,45.786158,-108.527811,CAS,1904,1
Bowers,45.0200618,-105.4804314,USNM,1894,1
"Brockton, 6 mi N of",48.2308559,-104.9114541,USNM,1922,1
CASCADE,47.2692,-111.70053,UMMZ,1927,1
"Calypso, north side of Yellowstone River",46.7712546,-105.4214508,USNM,1918,1
"Capitol, 15 mi W of",45.4364658,-104.3744038,USNM,1916,1
Cartersville,46.293024,-106.466915,MVZ,1941,1
"Cohagen, 15 mi SE of",46.8961483,-106.4024816,USNM,1918,1
"Cohagen, divide betwn Dry and Porcupine Creeks, 30 mi SW of",46.9194437,-107.1345036,USNM,1918,1
"Crazy Mountains, Big Timber Creek",46.0371261,-110.2255812,USNM,1917,1
Forsyth,46.267706,-106.679336,CAS,1903,1
"Frenchmans River, near",48.9640409,-107.4065411,USNM,1874,1
Glasgow,48.18,-106.63,USNM,1919,1
"Hardin, 8 mi S of",45.6143456,-107.6065002,USNM,1917,1
"Heath, 15 mi S of, Big Snowy Mountains",46.78363,-109.2725645,USNM,1918,1
"Hilger, 5 mi NW of, Mocassin Mountains",47.2722275,-109.4605772,USNM,1919,1
"Hilger, 7 mi NE of",47.3218288,-109.2485717,USNM,1919,1
Hysham,46.293267,-107.228992,MVZ,1941,1
KEVIN,48.754928,-111.983126,UMMZ,1933,1
"Lake Basin, 3 mi S of",45.8979345,-109.0885467,USNM,1917,1
"Leedy, 14 mi E of",48.3526348,-108.2555576,USNM,1919,1
"Lewistown, 1 mi SE of",47.0542283,-109.4165727,USNM,1918,1
"Lismas, 18 mi S of, on Dry Creek",47.75,-106.5,USNM,1919,1
MILES CITY,46.40633,-105.840035,UMMZ,1904,1
"Miles City, 3 mi S of, on Tongue River",46.3611,-105.83,USNM,1918,1
Moorhead,45.0657592,-105.8794435,USNM,1916,1
Painted Robe Creek,46.1871339,-108.9905479,USNM,1894,1
Powderville,45.758886,-105.115425,CAS,1903,1
"Powderville, 12 mi SW of",45.6268598,-105.2524318,USNM,1916,1
"Powderville, 12 mi W of",45.7559586,-105.3654367,USNM,1916,1
"Powderville, 8 mi SW of",45.6745597,-105.2324318,USNM,1916,1
Rosebud,46.2749,-106.443172,CAS,1910,1
Rosebud Creek,45.2032512,-107.0664794,USNM,1894,1
"Roundup, 8 mi S of",46.3246362,-108.5665375,USNM,1908,1
ST MARYS GLACIER NAT PARK,48.738956,-113.420962,UMMZ,1927,1
ST MARYS GLACIER NAT PARK,48.742226,-113.427622,UMMZ,1927,1
SWEET GRASS CR,46.03693,-109.791182,UMMZ,1942,1
SWIMMING WOMAN CANYON BIG SNOWY MT SOUTH SIDE,46.718925,-109.340677,UMMZ,1942,1
Shriver,45.206412,-108.527736,MVZ,1947,1
South Fork Cutbank Creek,48.556537,-113.273739,MVZ,1942,1
St. Mary's River,48.883497,-113.4267199,USNM,1874,1
"Sykes, 25 mi SW of, Boxelder Creek",45.3813645,-104.6494113,USNM,1916,1
"Terry, 25 mi N of",47.1414543,-105.3254526,USNM,1909,1
"Terry, Yellowstone River",46.8003552,-105.3074477,USNM,1918,1
VOLTA DAM 13.5 MI BELOW GREAT FALLS,47.587897,-111.058893,UMMZ,1942,1
"Yellowstone River, 7 mi E Glendive",47.198491,-104.654479,MVZ,1947,1
"Yellowstone River, 7 mi NE Glendive",47.198491,-104.654479,MVZ,1947,1
"Yellowstone River, mouth of",47.9994608,-104.0524247,USNM,1873,1
